{"cities":{"New York":{"country":"USA","lat":40.7128,"lon":-74.006,"poiCount":650,"pois":[{"name":"Starbucks - Times Square","lat":40.758,"lon":-73.9855,"category":"Cafe","type":"cafe","emoji":"☕"},{"name":"Starbucks - 34th Street","lat":40.7506,"lon":-73.9872,"category":"Cafe","type":"cafe","emoji":"☕"},{"name":"Blue Bottle Coffee","lat":40.7489,"lon":-73.968,"category":"Cafe","type":"cafe","emoji":"☕"},{"name":"Shake Shack - Madison Square Park","lat":40.745,"lon":-73.9877,"category":"Fast Food","type":"fast_food","emoji":"🍔"},{"name":"McDonald's - Times Square","lat":40.758,"lon":-73.9855,"category":"Fast Food","type":"fast_food","emoji":"🍔"},{"name":"Balthazar Restaurant","lat":40.7198,"lon":-73.9972,"category":"Restaurant","type":"restaurant","emoji":"🍽️"},{"name":"Eleven Madison Park","lat":40.7424,"lon":-73.9864,"category":"Restaurant","type":"restaurant","emoji":"🍽️"},{"name":"Le Bernardin","lat":40.7649,"lon":-73.9801,"category":"Restaurant","type":"restaurant","emoji":"🍽️"},{"name":"Carbone","lat":40.7298,"lon":-73.9997,"category":"Restaurant","type":"restaurant","emoji":"🍽️"},{"name":"Per Se","lat":40.7735,"lon":-73.9823,"category":"Restaurant","type":"restaurant","emoji":"🍽️"},{"name":"Apple Store - 5th Avenue","lat":40.7647,"lon":-73.9741,"category":"Electronics","type":"electronics","emoji":"🍎"},{"name":"Apple Store - SoHo","lat":40.7227,"lon":-73.998,"category":"Electronics","type":"electronics","emoji":"🍎"},{"name":"Best Buy - 5th Avenue","lat":40.7506,"lon":-73.9776,"category":"Electronics","type":"electronics","emoji":"📱"},{"name":"Whole Foods - Union Square","lat":40.7358,"lon":-73.9911,"category":"Supermarket","type":"supermarket","emoji":"🛒"},{"name":"Trader Joe's - 14th Street","lat":40.738,"lon":-73.9855,"category":"Supermarket","type":"supermarket","emoji":"🛒"},{"name":"Crosby Street Hotel","lat":40.72,"lon":-74,"category":"Hotel","type":"hotel","emoji":"🏨"},{"name":"The Plaza Hotel","lat":40.765,"lon":-73.9776,"category":"Hotel","type":"hotel","emoji":"🏨"},{"name":"Madison Square Garden","lat":40.7505,"lon":-73.9934,"category":"Entertainment","type":"entertainment","emoji":"🎭"},{"name":"Times Square Theater District","lat":40.758,"lon":-73.9855,"category":"Entertainment","type":"entertainment","emoji":"🎭"},{"name":"Central Park","lat":40.7829,"lon":-73.9654,"category":"Park","type":"park","emoji":"🌳"},{"name":"The New York Public Library","lat":40.7532,"lon":-73.9822,"category":"Library","type":"library","emoji":"📚"},{"name":"Metropolitan Museum of Art","lat":40.7813,"lon":-73.974,"category":"Museum","type":"museum","emoji":"🏛️"},{"name":"Chase Bank - 5th Avenue","lat":40.755,"lon":-73.9776,"category":"Bank","type":"bank","emoji":"🏦"},{"name":"Bank of America - Times Square","lat":40.758,"lon":-73.9855,"category":"Bank","type":"bank","emoji":"🏦"},{"name":"Bellevue Hospital","lat":40.739,"lon":-73.9776,"category":"Hospital","type":"hospital","emoji":"🏥"}]},"Los Angeles":{"country":"USA","lat":34.0522,"lon":-118.2437,"poiCount":580,"pois":[{"name":"Starbucks - Hollywood Walk of Fame","lat":34.1016,"lon":-118.327,"category":"Cafe","type":"cafe","emoji":"☕"},{"name":"Intelligentsia Coffee - Arts District","lat":34.0486,"lon":-118.2474,"category":"Cafe","type":"cafe","emoji":"☕"},{"name":"Blue Bottle Coffee - Downtown","lat":34.0563,"lon":-118.2381,"category":"Cafe","type":"cafe","emoji":"☕"},{"name":"Nobu - Malibu","lat":34.0295,"lon":-118.6767,"category":"Restaurant","type":"restaurant","emoji":"🍽️"},{"name":"Republique - Mid-City","lat":34.0725,"lon":-118.2873,"category":"Restaurant","type":"restaurant","emoji":"🍽️"},{"name":"Bestia - Arts District","lat":34.0486,"lon":-118.2474,"category":"Restaurant","type":"restaurant","emoji":"🍽️"},{"name":"Gwen - Downtown LA","lat":34.0563,"lon":-118.2381,"category":"Restaurant","type":"restaurant","emoji":"🍽️"},{"name":"Apple Store - The Grove","lat":34.0725,"lon":-118.3524,"category":"Electronics","type":"electronics","emoji":"🍎"},{"name":"Apple Store - Santa Monica","lat":34.0195,"lon":-118.4912,"category":"Electronics","type":"electronics","emoji":"🍎"},{"name":"Best Buy - Koreatown","lat":34.0704,"lon":-118.2967,"category":"Electronics","type":"electronics","emoji":"📱"},{"name":"Whole Foods - West Hollywood","lat":34.09,"lon":-118.3616,"category":"Supermarket","type":"supermarket","emoji":"🛒"},{"name":"Trader Joe's - Santa Monica","lat":34.0195,"lon":-118.4912,"category":"Supermarket","type":"supermarket","emoji":"🛒"},{"name":"Griffith Observatory","lat":34.1186,"lon":-118.3042,"category":"Entertainment","type":"entertainment","emoji":"🔭"},{"name":"Hollywood Bowl","lat":34.1081,"lon":-118.3399,"category":"Entertainment","type":"entertainment","emoji":"🎭"},{"name":"The Grove","lat":34.0725,"lon":-118.3524,"category":"Shopping Mall","type":"mall","emoji":"🏬"},{"name":"The Beverly Center","lat":34.0811,"lon":-118.3726,"category":"Shopping Mall","type":"mall","emoji":"🏬"},{"name":"Griffith Park","lat":34.1186,"lon":-118.2942,"category":"Park","type":"park","emoji":"🌳"},{"name":"Runyon Canyon Park","lat":34.1125,"lon":-118.3545,"category":"Park","type":"park","emoji":"🌳"},{"name":"LA County Museum","lat":34.0635,"lon":-118.3607,"category":"Museum","type":"museum","emoji":"🏛️"},{"name":"Getty Center","lat":34.0782,"lon":-118.4735,"category":"Museum","type":"museum","emoji":"🏛️"},{"name":"Cedars-Sinai Medical Center","lat":34.0811,"lon":-118.4082,"category":"Hospital","type":"hospital","emoji":"🏥"},{"name":"UCLA Medical Center","lat":34.0704,"lon":-118.4471,"category":"Hospital","type":"hospital","emoji":"🏥"},{"name":"Chase Bank - Downtown LA","lat":34.0563,"lon":-118.2381,"category":"Bank","type":"bank","emoji":"🏦"}]},"London":{"country":"UK","lat":51.5074,"lon":-0.1278,"poiCount":620,"pois":[{"name":"Starbucks - Oxford Street","lat":51.5154,"lon":-0.1414,"category":"Cafe","type":"cafe","emoji":"☕"},{"name":"Pret A Manger - Piccadilly","lat":51.5103,"lon":-0.1335,"category":"Cafe","type":"cafe","emoji":"☕"},{"name":"Caffeine and Co - Soho","lat":51.5163,"lon":-0.1291,"category":"Cafe","type":"cafe","emoji":"☕"},{"name":"The Ivy - Covent Garden","lat":51.5136,"lon":-0.1225,"category":"Restaurant","type":"restaurant","emoji":"🍽️"},{"name":"Noma - Fitzrovia","lat":51.5165,"lon":-0.1402,"category":"Restaurant","type":"restaurant","emoji":"🍽️"},{"name":"Duck & Waffle - Spitalfields","lat":51.5184,"lon":-0.073,"category":"Restaurant","type":"restaurant","emoji":"🍽️"},{"name":"Sketch - Mayfair","lat":51.5092,"lon":-0.1481,"category":"Restaurant","type":"restaurant","emoji":"🍽️"},{"name":"Apple Store - Regent Street","lat":51.5165,"lon":-0.1414,"category":"Electronics","type":"electronics","emoji":"🍎"},{"name":"Selfridges - Oxford Street","lat":51.5154,"lon":-0.1414,"category":"Department Store","type":"department_store","emoji":"🏪"},{"name":"Harrods - Knightsbridge","lat":51.4993,"lon":-0.1638,"category":"Department Store","type":"department_store","emoji":"🏪"},{"name":"Tesco - Covent Garden","lat":51.5136,"lon":-0.1225,"category":"Supermarket","type":"supermarket","emoji":"🛒"},{"name":"Marks & Spencer - Oxford Street","lat":51.5154,"lon":-0.1414,"category":"Department Store","type":"department_store","emoji":"🏪"},{"name":"Big Ben","lat":51.4976,"lon":-0.1246,"category":"Landmark","type":"landmark","emoji":"🏰"},{"name":"Tower of London","lat":51.5055,"lon":-0.0759,"category":"Museum","type":"museum","emoji":"🏛️"},{"name":"British Museum","lat":51.5194,"lon":-0.127,"category":"Museum","type":"museum","emoji":"🏛️"},{"name":"National Gallery","lat":51.509,"lon":-0.1283,"category":"Museum","type":"museum","emoji":"🏛️"},{"name":"St James's Park","lat":51.5033,"lon":-0.1337,"category":"Park","type":"park","emoji":"🌳"},{"name":"Hyde Park","lat":51.5073,"lon":-0.1657,"category":"Park","type":"park","emoji":"🌳"},{"name":"Royal College of Music","lat":51.5003,"lon":-0.172,"category":"School","type":"school","emoji":"🎓"},{"name":"London Library","lat":51.5084,"lon":-0.1417,"category":"Library","type":"library","emoji":"📚"}]},"Tokyo":{"country":"Japan","lat":35.6762,"lon":139.6503,"poiCount":740,"pois":[{"name":"Starbucks - Shinjuku","lat":35.6895,"lon":139.7007,"category":"Cafe","type":"cafe","emoji":"☕"},{"name":"Cafe de l'Ambre - Ginza","lat":35.6745,"lon":139.7654,"category":"Cafe","type":"cafe","emoji":"☕"},{"name":"Tsujikoji Coffee - Shinjuku","lat":35.6895,"lon":139.7007,"category":"Cafe","type":"cafe","emoji":"☕"},{"name":"Sukiyaki Nakamura - Shibuya","lat":35.6595,"lon":139.7004,"category":"Restaurant","type":"restaurant","emoji":"🍽️"},{"name":"Nabezo - Roppongi","lat":35.665,"lon":139.7293,"category":"Restaurant","type":"restaurant","emoji":"🍽️"},{"name":"Gonpachi - Nishi-Azabu","lat":35.665,"lon":139.7293,"category":"Restaurant","type":"restaurant","emoji":"🍽️"},{"name":"Sushi Saito - Ginza","lat":35.6745,"lon":139.7654,"category":"Restaurant","type":"restaurant","emoji":"🍽️"},{"name":"Apple Store - Ginza","lat":35.6745,"lon":139.7654,"category":"Electronics","type":"electronics","emoji":"🍎"},{"name":"Apple Store - Shinjuku","lat":35.6895,"lon":139.7007,"category":"Electronics","type":"electronics","emoji":"🍎"},{"name":"Bic Camera - Shinjuku","lat":35.6895,"lon":139.7007,"category":"Electronics","type":"electronics","emoji":"📱"},{"name":"Daimaru - Ginza","lat":35.6745,"lon":139.7654,"category":"Department Store","type":"department_store","emoji":"🏪"},{"name":"Isetan - Shinjuku","lat":35.6895,"lon":139.7007,"category":"Department Store","type":"department_store","emoji":"🏪"},{"name":"Roppongi Hills","lat":35.665,"lon":139.7293,"category":"Shopping Mall","type":"mall","emoji":"🏬"},{"name":"Tokyo Tower","lat":35.6586,"lon":139.7454,"category":"Landmark","type":"landmark","emoji":"🗼"},{"name":"Senso-ji Temple","lat":35.7148,"lon":139.7967,"category":"Temple","type":"temple","emoji":"⛩️"},{"name":"Meiji Shrine","lat":35.6764,"lon":139.6994,"category":"Temple","type":"temple","emoji":"⛩️"},{"name":"Ueno Park","lat":35.7148,"lon":139.7745,"category":"Park","type":"park","emoji":"🌳"},{"name":"Yoyogi Park","lat":35.6764,"lon":139.6994,"category":"Park","type":"park","emoji":"🌳"},{"name":"Tokyo National Museum","lat":35.7148,"lon":139.7745,"category":"Museum","type":"museum","emoji":"🏛️"},{"name":"Imperial Palace","lat":35.6762,"lon":139.7505,"category":"Landmark","type":"landmark","emoji":"🏰"}]},"Paris":{"country":"France","lat":48.8566,"lon":2.3522,"poiCount":600,"pois":[{"name":"Starbucks - Champs-Élysées","lat":48.8698,"lon":2.3074,"category":"Cafe","type":"cafe","emoji":"☕"},{"name":"Café de Flore - Saint-Germain","lat":48.8537,"lon":2.3345,"category":"Cafe","type":"cafe","emoji":"☕"},{"name":"Les Deux Magots - Saint-Germain","lat":48.8537,"lon":2.3345,"category":"Cafe","type":"cafe","emoji":"☕"},{"name":"L'Astrance - Muette","lat":48.8615,"lon":2.2865,"category":"Restaurant","type":"restaurant","emoji":"🍽️"},{"name":"Le Jules Verne - Eiffel Tower","lat":48.8584,"lon":2.2945,"category":"Restaurant","type":"restaurant","emoji":"🍽️"},{"name":"Alain Ducasse au Plaza Athénée","lat":48.8698,"lon":2.3099,"category":"Restaurant","type":"restaurant","emoji":"🍽️"},{"name":"Ladurée - Champs-Élysées","lat":48.8698,"lon":2.3074,"category":"Bakery","type":"bakery","emoji":"🥐"},{"name":"Apple Store - Champs-Élysées","lat":48.8698,"lon":2.3074,"category":"Electronics","type":"electronics","emoji":"🍎"},{"name":"Galeries Lafayette - Boulevard Haussmann","lat":48.8738,"lon":2.335,"category":"Department Store","type":"department_store","emoji":"🏪"},{"name":"Au Bon Marché - Left Bank","lat":48.8537,"lon":2.3303,"category":"Department Store","type":"department_store","emoji":"🏪"},{"name":"Eiffel Tower","lat":48.8584,"lon":2.2945,"category":"Landmark","type":"landmark","emoji":"🗼"},{"name":"Louvre Museum","lat":48.8606,"lon":2.3352,"category":"Museum","type":"museum","emoji":"🏛️"},{"name":"Musée d'Orsay","lat":48.8601,"lon":2.3265,"category":"Museum","type":"museum","emoji":"🏛️"},{"name":"Notre-Dame Cathedral","lat":48.853,"lon":2.3499,"category":"Landmark","type":"landmark","emoji":"⛪"},{"name":"Sacré-Cœur","lat":48.8867,"lon":2.3431,"category":"Landmark","type":"landmark","emoji":"⛪"},{"name":"Luxembourg Gardens","lat":48.846,"lon":2.3368,"category":"Park","type":"park","emoji":"🌳"},{"name":"Tuileries Garden","lat":48.8636,"lon":2.3268,"category":"Park","type":"park","emoji":"🌳"},{"name":"Bibliothèque Nationale de France","lat":48.8398,"lon":2.376,"category":"Library","type":"library","emoji":"📚"}]},"Sydney":{"country":"Australia","lat":-33.8688,"lon":151.2093,"poiCount":480,"pois":[{"name":"Starbucks - CBD","lat":-33.8688,"lon":151.2093,"category":"Cafe","type":"cafe","emoji":"☕"},{"name":"Three Beans Cafe - Newtown","lat":-33.8976,"lon":151.1746,"category":"Cafe","type":"cafe","emoji":"☕"},{"name":"Single Origin Espresso - Surry Hills","lat":-33.8832,"lon":151.2212,"category":"Cafe","type":"cafe","emoji":"☕"},{"name":"Quay - Circular Quay","lat":-33.8567,"lon":151.2093,"category":"Restaurant","type":"restaurant","emoji":"🍽️"},{"name":"Aria - Barangaroo","lat":-33.8614,"lon":151.2062,"category":"Restaurant","type":"restaurant","emoji":"🍽️"},{"name":"Sepia - Marrickville","lat":-33.9125,"lon":151.1662,"category":"Restaurant","type":"restaurant","emoji":"🍽️"},{"name":"Opera Bar - Opera House","lat":-33.8568,"lon":151.2153,"category":"Bar","type":"bar","emoji":"🍺"},{"name":"Apple Store - Bondi Junction","lat":-33.8891,"lon":151.2736,"category":"Electronics","type":"electronics","emoji":"🍎"},{"name":"Apple Store - CBD","lat":-33.8688,"lon":151.2093,"category":"Electronics","type":"electronics","emoji":"🍎"},{"name":"Westfield Sydney","lat":-33.87,"lon":151.2076,"category":"Shopping Mall","type":"mall","emoji":"🏬"},{"name":"Bondi Beach","lat":-33.8891,"lon":151.2768,"category":"Beach","type":"beach","emoji":"🏖️"},{"name":"Sydney Opera House","lat":-33.8568,"lon":151.2153,"category":"Landmark","type":"landmark","emoji":"🎭"},{"name":"Sydney Harbour Bridge","lat":-33.8527,"lon":151.2105,"category":"Landmark","type":"landmark","emoji":"🌉"},{"name":"Art Gallery of New South Wales","lat":-33.8735,"lon":151.2158,"category":"Museum","type":"museum","emoji":"🏛️"},{"name":"Australian Museum","lat":-33.8791,"lon":151.2127,"category":"Museum","type":"museum","emoji":"🏛️"},{"name":"Hyde Park","lat":-33.8732,"lon":151.2098,"category":"Park","type":"park","emoji":"🌳"},{"name":"Centennial Park","lat":-33.8891,"lon":151.225,"category":"Park","type":"park","emoji":"🌳"},{"name":"State Library of NSW","lat":-33.8761,"lon":151.2078,"category":"Library","type":"library","emoji":"📚"}]},"Dubai":{"country":"UAE","lat":25.2048,"lon":55.2708,"poiCount":520,"pois":[{"name":"Starbucks - Dubai Mall","lat":25.1972,"lon":55.2744,"category":"Cafe","type":"cafe","emoji":"☕"},{"name":"Costa Coffee - JBR","lat":25.0855,"lon":55.1417,"category":"Cafe","type":"cafe","emoji":"☕"},{"name":"Al Mallah - Deira","lat":25.2697,"lon":55.3091,"category":"Restaurant","type":"restaurant","emoji":"🍽️"},{"name":"Nobu - DIFC","lat":25.1899,"lon":55.2756,"category":"Restaurant","type":"restaurant","emoji":"🍽️"},{"name":"Indian Palace - Karama","lat":25.2082,"lon":55.3092,"category":"Restaurant","type":"restaurant","emoji":"🍽️"},{"name":"Emirates Mall","lat":25.137,"lon":55.1946,"category":"Shopping Mall","type":"mall","emoji":"🏬"},{"name":"Dubai Mall","lat":25.1972,"lon":55.2744,"category":"Shopping Mall","type":"mall","emoji":"🏬"},{"name":"Burj Khalifa","lat":25.1972,"lon":55.2744,"category":"Landmark","type":"landmark","emoji":"🌃"},{"name":"Palm Jumeirah","lat":25.1126,"lon":55.1388,"category":"Landmark","type":"landmark","emoji":"🏝️"},{"name":"Dubai Fountain","lat":25.1972,"lon":55.2744,"category":"Attraction","type":"attraction","emoji":"⛲"},{"name":"Gold Souk - Deira","lat":25.2697,"lon":55.3091,"category":"Market","type":"market","emoji":"🛍️"},{"name":"Bastakiya Quarter","lat":25.2656,"lon":55.2977,"category":"Historic Area","type":"historic","emoji":"🏘️"},{"name":"Apple Store - Dubai Mall","lat":25.1972,"lon":55.2744,"category":"Electronics","type":"electronics","emoji":"🍎"},{"name":"Carrefour - Dubai Marina","lat":25.0898,"lon":55.1427,"category":"Supermarket","type":"supermarket","emoji":"🛒"}]},"Singapore":{"country":"Singapore","lat":1.3521,"lon":103.8198,"poiCount":450,"pois":[{"name":"Starbucks - Orchard","lat":1.3048,"lon":103.8343,"category":"Cafe","type":"cafe","emoji":"☕"},{"name":"Kopi Cham - Chinatown","lat":1.2836,"lon":103.8426,"category":"Cafe","type":"cafe","emoji":"☕"},{"name":"Nasi Lemak - Marina Bay","lat":1.2829,"lon":103.8566,"category":"Restaurant","type":"restaurant","emoji":"🍽️"},{"name":"Jing Fong - Chinatown","lat":1.2836,"lon":103.8426,"category":"Restaurant","type":"restaurant","emoji":"🍽️"},{"name":"Orchard Central","lat":1.3048,"lon":103.8343,"category":"Shopping Mall","type":"mall","emoji":"🏬"},{"name":"Marina Bay Sands","lat":1.2829,"lon":103.8566,"category":"Landmark","type":"landmark","emoji":"🏢"},{"name":"Gardens by the Bay","lat":1.2816,"lon":103.8636,"category":"Park","type":"park","emoji":"🌳"},{"name":"Singapore Flyer","lat":1.3708,"lon":103.893,"category":"Landmark","type":"landmark","emoji":"🎡"},{"name":"Merlion Park","lat":1.287,"lon":103.8545,"category":"Park","type":"park","emoji":"🌳"},{"name":"National Museum of Singapore","lat":1.2904,"lon":103.8181,"category":"Museum","type":"museum","emoji":"🏛️"}]},"Toronto":{"country":"Canada","lat":43.6532,"lon":-79.3832,"poiCount":500,"pois":[{"name":"Starbucks - Queen West","lat":43.6629,"lon":-79.3957,"category":"Cafe","type":"cafe","emoji":"☕"},{"name":"Balzac's Coffee - Old Town Toronto","lat":43.6629,"lon":-79.3957,"category":"Cafe","type":"cafe","emoji":"☕"},{"name":"Blue Bottle - King West","lat":43.6426,"lon":-79.3871,"category":"Cafe","type":"cafe","emoji":"☕"},{"name":"Canteen - Fashion District","lat":43.6516,"lon":-79.3988,"category":"Restaurant","type":"restaurant","emoji":"🍽️"},{"name":"Peep - Ossington","lat":43.6659,"lon":-79.407,"category":"Restaurant","type":"restaurant","emoji":"🍽️"},{"name":"Eaton Centre","lat":43.6654,"lon":-79.3803,"category":"Shopping Mall","type":"mall","emoji":"🏬"},{"name":"CN Tower","lat":43.6426,"lon":-79.3871,"category":"Landmark","type":"landmark","emoji":"🗼"},{"name":"St. Lawrence Market","lat":43.6629,"lon":-79.3743,"category":"Market","type":"market","emoji":"🛒"},{"name":"Queen Street West","lat":43.6629,"lon":-79.3957,"category":"Street","type":"street","emoji":"🛍️"},{"name":"Royal Ontario Museum","lat":43.6673,"lon":-79.3954,"category":"Museum","type":"museum","emoji":"🏛️"}]},"Bangkok":{"country":"Thailand","lat":13.7563,"lon":100.5018,"poiCount":530,"pois":[{"name":"Starbucks - Central World","lat":13.7465,"lon":100.5361,"category":"Cafe","type":"cafe","emoji":"☕"},{"name":"Khaosanroad Cafe - Khao San","lat":13.7618,"lon":100.501,"category":"Cafe","type":"cafe","emoji":"☕"},{"name":"Boat Noodles - Sukhumvit","lat":13.7307,"lon":100.554,"category":"Restaurant","type":"restaurant","emoji":"🍽️"},{"name":"Gaggan - Sukhumvit","lat":13.7307,"lon":100.554,"category":"Restaurant","type":"restaurant","emoji":"🍽️"},{"name":"Central World","lat":13.7465,"lon":100.5361,"category":"Shopping Mall","type":"mall","emoji":"🏬"},{"name":"MBK Center","lat":13.7359,"lon":100.5288,"category":"Shopping Mall","type":"mall","emoji":"🏬"},{"name":"Grand Palace","lat":13.6504,"lon":100.4955,"category":"Landmark","type":"landmark","emoji":"🏰"},{"name":"Wat Pho","lat":13.6461,"lon":100.4949,"category":"Temple","type":"temple","emoji":"⛩️"},{"name":"Wat Saket","lat":13.7618,"lon":100.501,"category":"Temple","type":"temple","emoji":"⛩️"},{"name":"Floating Markets","lat":13.891,"lon":100.3518,"category":"Market","type":"market","emoji":"🛒"}]},"Berlin":{"country":"Germany","lat":52.52,"lon":13.405,"poiCount":490,"pois":[{"name":"Starbucks - Alexanderplatz","lat":52.5205,"lon":13.4115,"category":"Cafe","type":"cafe","emoji":"☕"},{"name":"The Barn - Mitte","lat":52.52,"lon":13.405,"category":"Cafe","type":"cafe","emoji":"☕"},{"name":"Curry 36 - Mehringdamm","lat":52.5049,"lon":13.3878,"category":"Fast Food","type":"fast_food","emoji":"🌭"},{"name":"Gourmet Buro - Charlottenburg","lat":52.52,"lon":13.29,"category":"Restaurant","type":"restaurant","emoji":"🍽️"},{"name":"Tausend - Mitte","lat":52.52,"lon":13.405,"category":"Bar","type":"bar","emoji":"🍺"},{"name":"Alexa - Alexanderplatz","lat":52.5205,"lon":13.4115,"category":"Shopping Mall","type":"mall","emoji":"🏬"},{"name":"Galeria Kaufhof - Alexanderplatz","lat":52.5205,"lon":13.4115,"category":"Department Store","type":"department_store","emoji":"🏪"},{"name":"Brandenburg Gate","lat":52.5163,"lon":13.3777,"category":"Landmark","type":"landmark","emoji":"🏛️"},{"name":"Reichstag Building","lat":52.5186,"lon":13.3755,"category":"Landmark","type":"landmark","emoji":"🏛️"},{"name":"Museum Island","lat":52.5204,"lon":13.3978,"category":"Museum","type":"museum","emoji":"🏛️"}]},"Mexico City":{"country":"Mexico","lat":19.4326,"lon":-99.1332,"poiCount":460,"pois":[{"name":"Starbucks - Reforma","lat":19.4267,"lon":-99.1616,"category":"Cafe","type":"cafe","emoji":"☕"},{"name":"Cafe de Tacuba - Centro","lat":19.4326,"lon":-99.1332,"category":"Cafe","type":"cafe","emoji":"☕"},{"name":"Contramar - Coyoacán","lat":19.3493,"lon":-99.1678,"category":"Restaurant","type":"restaurant","emoji":"🍽️"},{"name":"Quintonil - San Ángel","lat":19.358,"lon":-99.1948,"category":"Restaurant","type":"restaurant","emoji":"🍽️"},{"name":"Plaza Mayor","lat":19.4326,"lon":-99.1332,"category":"Historic Center","type":"historic","emoji":"🏛️"},{"name":"Zócalo - Main Square","lat":19.4326,"lon":-99.1332,"category":"Plaza","type":"plaza","emoji":"🏢"},{"name":"National Palace","lat":19.4328,"lon":-99.1334,"category":"Museum","type":"museum","emoji":"🏛️"},{"name":"Museo de Frida Kahlo","lat":19.3493,"lon":-99.1678,"category":"Museum","type":"museum","emoji":"🏛️"},{"name":"Templo Mayor","lat":19.4373,"lon":-99.1319,"category":"Archaeological","type":"archaeological","emoji":"🏛️"},{"name":"Chapultepec Park","lat":19.4267,"lon":-99.1892,"category":"Park","type":"park","emoji":"🌳"}]},"São Paulo":{"country":"Brazil","lat":-23.5505,"lon":-46.6333,"poiCount":540,"pois":[{"name":"Starbucks - Paulista","lat":-23.5614,"lon":-46.656,"category":"Cafe","type":"cafe","emoji":"☕"},{"name":"Café Ferreira - Liberdade","lat":-23.5582,"lon":-46.6385,"category":"Cafe","type":"cafe","emoji":"☕"},{"name":"La Frida - Vila Madalena","lat":-23.5505,"lon":-46.6778,"category":"Restaurant","type":"restaurant","emoji":"🍽️"},{"name":"D.O.M. - Jardim Paulista","lat":-23.5505,"lon":-46.6333,"category":"Restaurant","type":"restaurant","emoji":"🍽️"},{"name":"Iguatemi Mall","lat":-23.5614,"lon":-46.656,"category":"Shopping Mall","type":"mall","emoji":"🏬"},{"name":"Shopping Ibirapuera","lat":-23.5889,"lon":-46.6177,"category":"Shopping Mall","type":"mall","emoji":"🏬"},{"name":"Ibirapuera Park","lat":-23.5889,"lon":-46.6177,"category":"Park","type":"park","emoji":"🌳"},{"name":"Pinacoteca do Estado","lat":-23.5449,"lon":-46.6234,"category":"Museum","type":"museum","emoji":"🏛️"},{"name":"Museu de Arte de São Paulo","lat":-23.5614,"lon":-46.656,"category":"Museum","type":"museum","emoji":"🏛️"},{"name":"Liberdade District","lat":-23.5582,"lon":-46.6385,"category":"District","type":"district","emoji":"🏘️"}]},"Mumbai":{"country":"India","lat":19.076,"lon":72.8777,"poiCount":470,"pois":[{"name":"Starbucks - Fort","lat":18.9676,"lon":72.8194,"category":"Cafe","type":"cafe","emoji":"☕"},{"name":"Indian Coffee House - Colaba","lat":18.9389,"lon":72.8344,"category":"Cafe","type":"cafe","emoji":"☕"},{"name":"Trishna - Fort","lat":18.9676,"lon":72.8194,"category":"Restaurant","type":"restaurant","emoji":"🍽️"},{"name":"Dum Pukht - Marine Drive","lat":18.9556,"lon":72.8295,"category":"Restaurant","type":"restaurant","emoji":"🍽️"},{"name":"Westside - Bandra","lat":19.0596,"lon":72.8295,"category":"Shopping Mall","type":"mall","emoji":"🏬"},{"name":"Gateway of India","lat":18.9389,"lon":72.8344,"category":"Landmark","type":"landmark","emoji":"🏛️"},{"name":"Taj Mahal Palace","lat":18.9389,"lon":72.8344,"category":"Hotel","type":"hotel","emoji":"🏨"},{"name":"Marine Drive","lat":18.9556,"lon":72.8295,"category":"Promenade","type":"promenade","emoji":"🌊"},{"name":"Bandra-Worli Sea Link","lat":19.0596,"lon":72.8295,"category":"Bridge","type":"bridge","emoji":"🌉"},{"name":"Prince of Wales Museum","lat":18.9676,"lon":72.8194,"category":"Museum","type":"museum","emoji":"🏛️"}]}}}